{"type":"FeatureCollection","features":[{"type":"Feature","properties":{"Landmark":"First Church of Christ, Scientist","address":"2619 Dwight Way","Architect + Date":"Bernard Maybeck (1910)"},"geometry":{"coordinates":[-122.25583894622935,37.86612712292728],"type":"Point"}},{"type":"Feature","properties":{"Landmark":"\tChurch of the Good Shepherd, Episcopal","address":"\t1823 Ninth Street at Hearst Avenue","Architect + Date":"Charles L. Bugbee (1878)"},"geometry":{"coordinates":[-122.29470245767274,37.87022930627782],"type":"Point"}},{"type":"Feature","properties":{"Landmark":"\tWestminster Presbyterian Church","address":"926 Hearst Avenue & 1901 Eighth Street","Architect + Date":"Charles Geddes (1879)"},"geometry":{"coordinates":[-122.25388600000002,37.86224347029669],"type":"Point"}},{"type":"Feature","properties":{"Landmark":"St. John’s Presbyterian Church (now Julia Morgan Center for the Arts)","address":"2640 College Avenue","Architect + Date":"Julia Morgan (1908, 1910)"},"geometry":{"coordinates":[-122.25389159964054,37.86220958910859],"type":"Point"}},{"type":"Feature","properties":{"Landmark":"\tBerkeley Women’s City Club (now Berkeley City Club)","address":"2315 Durant Avenue","Architect + Date":"Julia Morgan (1929–30)"},"geometry":{"coordinates":[-122.26271801622013,37.867583466409485],"type":"Point"}},{"type":"Feature","properties":{"Landmark":"Town and Gown Club","address":"2401 Dwight Way","Architect + Date":"\tBernard Maybeck (1899)"},"geometry":{"coordinates":[-122.27317814408858,37.869581224154786],"type":"Point"}},{"type":"Feature","properties":{"Landmark":"Berkeley City Hall (Old City Hall; now Maudelle Shirek Building)","address":"\t2134 Grove Street (now Martin Luther King, Jr. Way)","Architect + Date":"John Bakewell Jr. & Arthur M. Brown Jr. (1907)"},"geometry":{"coordinates":[-122.2731796519491,37.869577276189844],"type":"Point"}},{"type":"Feature","properties":{"Landmark":"\tWilliam R. Thorsen House (now Sigma Phi Society Chapter House)","address":"2307 Piedmont Avenue","Architect + Date":"Charles Sumner Greene & Henry Mather Greene (1908–10)"},"geometry":{"coordinates":[-122.25184802312125,37.86907508872564],"type":"Point"}},{"type":"Feature","properties":{"Landmark":"Rose Walk","address":"2500 block of Rose Walk between Euclid & Le Roy Avenues","Architect + Date":"Bernard Maybeck (1913); Dr. Frank Gray Cottages by Henry Higby Gutterson (1923–36)"},"geometry":{"coordinates":[-122.26144475506696,37.88300246728417],"type":"Point"}},{"type":"Feature","properties":{"Landmark":".  Old Jefferson Elementary School","address":"\t1475 Rose Street at Sacramento Street","Architect + Date":"Henry Higby Gutterson (c. 1921); William C. Hays (1927)"},"geometry":{"coordinates":[-122.28357244639423,37.879099627626374],"type":"Point"}}]}